[
  {
    "dam_id": "dam_1368080700010",
    "name": "矢木沢ダム",
    "pref": "群馬県",
    "river": "利根川",
    "operator_group": "国",
    "lat": 36.8847,
    "lon": 138.93,
    "rate_pct": 85.3,
    "level_m": null,
    "updated_at": "2025-12-03T21:14:57.132042+09:00",
    "delta_pct_last": null,
    "delta_pct_24h": null,
    "slope_pct_per_day": null
  },
  {
    "dam_id": "dam_1368080700020",
    "name": "奈良俣ダム",
    "pref": "群馬県",
    "river": "利根川",
    "operator_group": "国",
    "lat": 36.8492,
    "lon": 139.0158,
    "rate_pct": 78.9,
    "level_m": null,
    "updated_at": "2025-12-03T21:14:57.132042+09:00",
    "delta_pct_last": null,
    "delta_pct_24h": null,
    "slope_pct_per_day": null
  },
  {
    "dam_id": "dam_1368080700030",
    "name": "藤原ダム",
    "pref": "群馬県",
    "river": "利根川",
    "operator_group": "国",
    "lat": 36.8169,
    "lon": 139.2256,
    "rate_pct": 92.1,
    "level_m": null,
    "updated_at": "2025-12-03T21:14:57.132042+09:00",
    "delta_pct_last": null,
    "delta_pct_24h": null,
    "slope_pct_per_day": null
  },
  {
    "dam_id": "dam_1368080700040",
    "name": "相俣ダム",
    "pref": "群馬県",
    "river": "利根川",
    "operator_group": "国",
    "lat": 36.8342,
    "lon": 139.1019,
    "rate_pct": 67.4,
    "level_m": null,
    "updated_at": "2025-12-03T21:14:57.132042+09:00",
    "delta_pct_last": null,
    "delta_pct_24h": null,
    "slope_pct_per_day": null
  },
  {
    "dam_id": "dam_1368080700050",
    "name": "薗原ダム",
    "pref": "群馬県",
    "river": "利根川",
    "operator_group": "国",
    "lat": 36.7969,
    "lon": 139.1569,
    "rate_pct": 88.2,
    "level_m": null,
    "updated_at": "2025-12-03T21:14:57.132042+09:00",
    "delta_pct_last": null,
    "delta_pct_24h": null,
    "slope_pct_per_day": null
  },
  {
    "dam_id": "dam_1368080700060",
    "name": "下久保ダム",
    "pref": "群馬県",
    "river": "利根川",
    "operator_group": "国",
    "lat": 36.1592,
    "lon": 138.9383,
    "rate_pct": 71.5,
    "level_m": null,
    "updated_at": "2025-12-03T21:14:57.132042+09:00",
    "delta_pct_last": null,
    "delta_pct_24h": null,
    "slope_pct_per_day": null
  },
  {
    "dam_id": "dam_1368080700070",
    "name": "草木ダム",
    "pref": "群馬県",
    "river": "利根川",
    "operator_group": "国",
    "lat": 36.5522,
    "lon": 139.2403,
    "rate_pct": 95.7,
    "level_m": null,
    "updated_at": "2025-12-03T21:14:57.132042+09:00",
    "delta_pct_last": null,
    "delta_pct_24h": null,
    "slope_pct_per_day": null
  },
  {
    "dam_id": "dam_1368080700080",
    "name": "渡良瀬貯水池",
    "pref": "栃木県",
    "river": "利根川",
    "operator_group": "国",
    "lat": 36.2458,
    "lon": 139.6378,
    "rate_pct": 54.3,
    "level_m": null,
    "updated_at": "2025-12-03T21:14:57.132042+09:00",
    "delta_pct_last": null,
    "delta_pct_24h": null,
    "slope_pct_per_day": null
  },
  {
    "dam_id": "dam_1368160680050",
    "name": "霞ヶ浦",
    "pref": "茨城県",
    "river": "利根川",
    "operator_group": "国",
    "lat": 36.0539,
    "lon": 140.3894,
    "rate_pct": 82.1,
    "level_m": null,
    "updated_at": "2025-12-03T21:14:57.132042+09:00",
    "delta_pct_last": null,
    "delta_pct_24h": null,
    "slope_pct_per_day": null
  },
  {
    "dam_id": "dam_1468080550010",
    "name": "金山ダム",
    "pref": "岩手県",
    "river": "北上川",
    "operator_group": "国",
    "lat": 39.1856,
    "lon": 140.8819,
    "rate_pct": 76.8,
    "level_m": null,
    "updated_at": "2025-12-03T21:14:57.132042+09:00",
    "delta_pct_last": null,
    "delta_pct_24h": null,
    "slope_pct_per_day": null
  },
  {
    "dam_id": "dam_1468080550020",
    "name": "田瀬ダム",
    "pref": "岩手県",
    "river": "北上川",
    "operator_group": "国",
    "lat": 39.3889,
    "lon": 141.3297,
    "rate_pct": 69.2,
    "level_m": null,
    "updated_at": "2025-12-03T21:14:57.132042+09:00",
    "delta_pct_last": null,
    "delta_pct_24h": null,
    "slope_pct_per_day": null
  },
  {
    "dam_id": "dam_1468080550030",
    "name": "湯田ダム",
    "pref": "岩手県",
    "river": "北上川",
    "operator_group": "国",
    "lat": 39.3128,
    "lon": 140.7894,
    "rate_pct": 91.4,
    "level_m": null,
    "updated_at": "2025-12-03T21:14:57.132042+09:00",
    "delta_pct_last": null,
    "delta_pct_24h": null,
    "slope_pct_per_day": null
  },
  {
    "dam_id": "dam_1468080550040",
    "name": "胆沢ダム",
    "pref": "岩手県",
    "river": "北上川",
    "operator_group": "国",
    "lat": 39.1561,
    "lon": 140.9422,
    "rate_pct": 58.9,
    "level_m": null,
    "updated_at": "2025-12-03T21:14:57.132042+09:00",
    "delta_pct_last": null,
    "delta_pct_24h": null,
    "slope_pct_per_day": null
  },
  {
    "dam_id": "dam_1568080900010",
    "name": "森吉山ダム",
    "pref": "秋田県",
    "river": "米代川",
    "operator_group": "国",
    "lat": 40.0433,
    "lon": 140.4817,
    "rate_pct": 73.6,
    "level_m": null,
    "updated_at": "2025-12-03T21:14:57.132042+09:00",
    "delta_pct_last": null,
    "delta_pct_24h": null,
    "slope_pct_per_day": null
  },
  {
    "dam_id": "dam_1568080900020",
    "name": "玉川ダム",
    "pref": "秋田県",
    "river": "雄物川",
    "operator_group": "国",
    "lat": 39.8792,
    "lon": 140.7569,
    "rate_pct": 87.3,
    "level_m": null,
    "updated_at": "2025-12-03T21:14:57.132042+09:00",
    "delta_pct_last": null,
    "delta_pct_24h": null,
    "slope_pct_per_day": null
  }
]